,City,Lat,Lng,Max Temp,Humidity,Cloudiness,Wind Speed,Country,Date
0,waipawa,-41.41,175.52,47.44,85,100,10.58,NZ,1632774571
1,butaritari,3.07,172.79,83.57,73,88,19.42,KI,1632774572
2,cherskiy,68.75,161.3,23.43,89,100,12.62,RU,1632774572
3,ushuaia,-54.8,-68.3,51.46,40,40,16.11,AR,1632774449
4,ribeira grande,38.52,-28.7,70.2,78,40,12.66,PT,1632774573
5,mataura,-46.19,168.86,44.47,63,51,2.66,NZ,1632774573
6,mar del plata,-38.0,-57.56,53.06,70,75,7.0,AR,1632774574
7,thompson,55.74,-97.86,55.56,76,75,4.61,CA,1632774394
8,praya,14.92,-23.51,82.94,57,20,11.5,CV,1632774574
9,busselton,-33.65,115.33,51.08,92,52,8.93,AU,1632774574
10,rikitea,-23.12,-134.97,73.76,71,29,22.48,PF,1632774575
11,hobart,-42.88,147.33,45.1,86,0,1.99,AU,1632774576
12,aklavik,68.22,-135.01,34.63,64,20,2.3,CA,1632774576
13,bluff,-46.6,168.33,44.8,71,59,11.1,NZ,1632774576
14,coaldale,49.72,-112.62,81.55,26,40,18.41,CA,1632774577
15,nemuro,43.32,145.57,56.3,82,13,11.5,JP,1632774577
16,mahibadhoo,3.78,72.97,81.19,81,100,18.01,MV,1632774578
17,saurimo,-9.66,20.39,69.66,71,89,4.16,AO,1632774578
18,hukuntsi,-24.0,21.75,79.07,15,100,6.33,BW,1632774578
19,sampit,-2.53,112.95,73.96,98,100,2.17,ID,1632774579
20,victoria,22.29,114.16,85.32,79,1,1.01,HK,1632774579
21,novokubansk,45.12,41.03,50.61,63,92,5.21,RU,1632774579
22,narsaq,60.92,-46.05,37.62,45,0,1.79,GL,1632774580
23,pitimbu,-7.47,-34.81,81.19,78,24,18.07,BR,1632774580
24,toba,34.48,136.85,66.2,68,8,15.21,JP,1632774580
25,quatre cocos,-20.21,57.76,71.1,65,69,16.71,MU,1632774581
26,padang,-0.95,100.35,77.47,88,32,3.83,ID,1632774581
27,iqaluit,63.75,-68.51,35.33,80,75,13.0,CA,1632774581
28,taltal,-25.4,-70.48,64.81,66,24,5.59,CL,1632774582
29,salta,-24.79,-65.41,91.69,26,20,8.01,AR,1632774554
30,kapaa,22.08,-159.32,82.38,74,75,1.99,US,1632774583
31,klaksvik,62.23,-6.59,47.32,88,100,18.88,FO,1632774583
32,srednekolymsk,67.45,153.68,24.98,93,100,17.87,RU,1632774583
33,castro,-24.79,-50.01,82.65,41,16,2.13,BR,1632774584
34,zulueta,42.75,-1.58,62.82,79,20,4.0,ES,1632774584
35,rafai,4.95,23.92,70.63,95,99,0.83,CF,1632774585
36,albany,42.6,-73.97,74.68,72,91,7.54,US,1632774413
37,vaini,-21.2,-175.2,75.36,78,20,3.44,TO,1632774585
38,khatanga,71.97,102.5,26.65,81,41,7.87,RU,1632774586
39,kysyl-syr,63.9,122.76,29.93,96,6,7.05,RU,1632774586
40,suraabad,40.82,49.47,60.98,63,11,11.12,AZ,1632774587
41,puerto ayora,-0.74,-90.35,78.76,89,84,10.69,EC,1632774587
42,severo-kurilsk,50.68,156.12,46.99,90,18,9.33,RU,1632774588
43,hermanus,-34.42,19.23,57.9,78,14,7.31,ZA,1632774588
44,anadyr,64.75,177.48,36.1,80,40,8.95,RU,1632774588
45,richards bay,-28.78,32.04,78.57,42,86,18.88,ZA,1632774589
46,codrington,-38.27,141.97,50.2,69,100,6.2,AU,1632774589
47,jiazi,22.88,116.07,77.29,82,0,7.09,CN,1632774589
48,dikson,73.51,80.55,35.53,86,23,19.53,RU,1632774590
49,san pedro,14.35,121.02,81.16,87,75,1.14,PH,1632774590
50,berekum,7.45,-2.58,71.85,94,100,1.9,GH,1632774590
51,cabedelo,-6.98,-34.83,81.27,80,50,19.64,BR,1632774591
52,mgachi,51.05,142.27,55.24,87,83,12.12,RU,1632774591
53,palafrugell,41.92,3.16,73.42,78,50,1.01,ES,1632774592
54,college,64.86,-147.8,34.59,76,90,0.0,US,1632774592
55,belyy yar,53.6,91.39,37.29,70,0,4.47,RU,1632774592
56,pedasi,7.53,-80.03,87.06,73,100,8.95,PA,1632774593
57,port alfred,-33.59,26.89,64.4,83,100,20.24,ZA,1632774593
58,tasiilaq,65.61,-37.64,37.56,69,2,6.29,GL,1632774594
59,punta arenas,-53.15,-70.92,50.11,57,40,31.07,CL,1632774594
60,leningradskiy,69.38,178.42,26.24,96,100,9.48,RU,1632774594
61,walvis bay,-22.96,14.51,58.08,88,27,3.44,NA,1632774595
62,bathsheba,13.22,-59.52,88.41,66,20,8.05,BB,1632774595
63,dothan,31.22,-85.39,89.17,50,1,1.99,US,1632774438
64,adrar,20.5,-10.07,96.57,8,0,6.49,MR,1632774596
65,kyabe,9.45,18.94,74.88,86,88,2.26,TD,1632774596
66,honiara,-9.43,159.95,76.68,88,100,5.53,SB,1632774597
67,tuktoyaktuk,69.45,-133.04,33.8,69,40,11.5,CA,1632774597
68,pevek,69.7,170.31,22.39,72,100,2.15,RU,1632774597
69,lagoa,39.05,-27.98,68.2,77,90,18.25,PT,1632774598
70,arraial do cabo,-22.97,-42.03,75.16,83,0,20.71,BR,1632774598
71,asyut,27.18,31.18,76.95,32,0,7.47,EG,1632774599
72,mahebourg,-20.41,57.7,71.26,73,20,13.8,MU,1632774599
73,chimbote,-9.09,-78.58,67.57,73,14,11.45,PE,1632774599
74,cape town,-33.93,18.42,58.26,64,20,8.05,ZA,1632774384
75,new norfolk,-42.78,147.06,44.74,73,78,2.89,AU,1632774600
76,sangar,63.92,127.47,33.76,74,2,1.03,RU,1632774600
77,yulara,-25.24,130.99,62.44,31,2,6.91,AU,1632774601
78,hilo,19.73,-155.09,81.81,79,90,0.0,US,1632774601
79,upernavik,72.79,-56.15,25.48,56,23,3.8,GL,1632774602
80,sistranda,63.73,8.83,60.91,71,91,30.89,NO,1632774604
81,caravelas,-17.71,-39.25,73.78,82,49,8.25,BR,1632774604
82,kodiak,57.79,-152.41,47.71,46,1,0.0,US,1632774605
83,avarua,-21.21,-159.78,80.65,74,28,5.75,CK,1632774605
84,selfoss,63.93,-21.0,37.29,75,35,13.29,IS,1632774606
85,ostrovnoy,68.05,39.51,44.76,90,99,2.48,RU,1632774606
86,yaan,7.38,8.57,74.89,86,24,6.22,NG,1632774607
87,jamestown,42.1,-79.24,77.29,57,1,10.0,US,1632774525
88,bengkulu,-3.8,102.27,75.52,90,99,2.1,ID,1632774605
89,kovdor,67.57,30.48,43.81,93,68,4.68,RU,1632774607
90,port elizabeth,-33.92,25.57,63.1,86,9,14.38,ZA,1632774570
91,bobon,12.52,124.56,77.85,90,91,2.82,PH,1632774608
92,simao,22.79,100.97,61.11,94,2,1.54,CN,1632774608
93,lahaina,20.88,-156.68,86.0,74,0,6.49,US,1632774609
94,wanning,18.8,110.4,76.91,93,19,5.12,CN,1632774609
95,torbay,47.67,-52.73,65.48,92,83,12.28,CA,1632774610
96,karratha,-20.74,116.85,69.08,32,98,11.23,AU,1632774610
97,casper,42.87,-106.31,86.5,12,1,8.99,US,1632774601
98,severomuysk,56.15,113.43,20.53,93,100,3.65,RU,1632774611
99,palmer,42.16,-72.33,76.08,63,75,1.99,US,1632774611
100,tiksi,71.69,128.87,31.64,97,100,3.02,RU,1632774612
101,jalu,29.03,21.55,76.95,30,0,6.53,LY,1632774612
102,bredasdorp,-34.53,20.04,51.28,87,7,6.24,ZA,1632774613
103,milici,44.17,19.09,63.01,94,55,2.82,BA,1632774613
104,esperance,-33.87,121.9,55.24,84,90,17.29,AU,1632774613
105,andenes,69.31,16.12,58.46,76,0,10.36,NO,1632774614
106,ulaanbaatar,47.91,106.88,39.33,65,75,11.18,MN,1632774422
107,saint-philippe,-21.36,55.77,69.35,79,42,13.69,RE,1632774614
108,isangel,-19.55,169.27,73.51,68,9,6.91,VU,1632774614
109,cidreira,-30.18,-50.21,67.71,90,0,11.36,BR,1632774615
110,kaitangata,-46.28,169.85,44.92,73,61,6.15,NZ,1632774615
111,manavalakurichi,8.13,77.3,77.09,88,100,16.11,IN,1632774616
112,ponta do sol,32.67,-17.1,72.23,68,36,5.7,PT,1632774618
113,riyadh,24.69,46.72,77.14,13,73,9.62,SA,1632774578
114,ulladulla,-35.35,150.47,52.7,69,54,6.08,AU,1632774618
115,mandalgovi,45.76,106.27,41.52,47,33,17.83,MN,1632774619
116,chuy,-33.7,-53.46,60.37,84,63,8.61,UY,1632774619
117,valley city,46.92,-98.0,81.59,41,1,13.8,US,1632774620
118,broome,42.25,-75.83,76.19,57,1,5.01,US,1632774620
119,guerrero negro,27.98,-114.06,73.72,60,22,15.21,MX,1632774621
120,churachandpur,24.33,93.67,65.16,95,67,1.61,IN,1632774621
121,georgetown,5.41,100.34,77.95,93,40,0.0,MY,1632774543
122,balaipungut,1.05,101.28,74.3,99,67,1.88,ID,1632774622
123,galveston,29.37,-94.97,91.18,80,75,1.01,US,1632774369
124,wakkanai,45.41,141.67,60.03,82,100,16.31,JP,1632774623
125,kalmunai,7.42,81.82,82.24,62,93,5.28,LK,1632774623
126,kruisfontein,-34.0,24.73,60.89,89,21,12.37,ZA,1632774624
127,geraldton,-28.77,114.6,50.41,93,27,9.22,AU,1632774624
128,sur,22.57,59.53,83.75,67,76,8.55,OM,1632774625
129,pisco,-13.7,-76.22,64.45,77,0,8.05,PE,1632774625
130,airai,-8.93,125.41,57.29,75,39,2.53,TL,1632774626
131,lebu,-37.62,-73.65,52.7,65,13,18.81,CL,1632774626
132,moroni,-11.7,43.26,75.96,79,0,1.41,KM,1632774627
133,acarau,-2.89,-40.12,80.53,77,68,18.99,BR,1632774627
134,husavik,66.04,-17.34,31.91,79,67,4.47,IS,1632774627
135,saint george,37.1,-113.58,90.07,33,1,1.01,US,1632774366
136,te anau,-45.42,167.72,43.25,65,20,1.07,NZ,1632774628
137,poronaysk,49.22,143.12,53.91,94,90,11.45,RU,1632774629
138,asau,46.43,26.4,58.95,79,99,3.18,RO,1632774629
139,hasaki,35.73,140.83,63.28,71,61,13.33,JP,1632774629
140,yellowknife,62.46,-114.35,52.41,64,20,4.0,CA,1632774630
141,lorengau,-2.02,147.27,82.02,76,66,7.14,PG,1632774630
142,tigil,57.8,158.67,38.68,88,43,4.56,RU,1632774631
143,sao filipe,14.9,-24.5,80.71,76,8,9.82,CV,1632774631
144,rocha,-34.48,-54.33,58.82,90,67,10.6,UY,1632774631
145,haskovo,41.94,25.57,69.39,57,69,6.26,BG,1632774632
146,belmonte,-15.86,-38.88,77.5,85,66,8.86,BR,1632774632
147,pio ix,-6.84,-40.58,88.95,25,86,7.25,BR,1632774633
148,port hardy,50.7,-127.42,51.98,100,75,17.27,CA,1632774633
149,dali,25.7,100.18,58.32,90,44,3.2,CN,1632774634
150,baijiantan,45.63,85.18,58.57,28,40,4.25,CN,1632774634
151,kadnikov,59.5,40.34,43.09,86,100,6.55,RU,1632774634
152,kristinehamn,59.31,14.11,54.16,76,49,15.82,SE,1632774634
153,norman wells,65.28,-126.83,32.04,100,90,2.3,CA,1632774635
154,barrow,71.29,-156.79,30.22,80,90,14.97,US,1632774635
155,hithadhoo,-0.6,73.08,82.17,77,99,13.56,MV,1632774636
156,cabo san lucas,22.89,-109.91,96.51,66,10,5.82,MX,1632774623
157,wetaskiwin,52.97,-113.37,76.48,23,6,11.88,CA,1632774637
158,grindavik,63.84,-22.43,37.87,70,75,34.52,IS,1632774553
159,west wendover,40.74,-114.07,78.01,14,1,6.91,US,1632774637
160,samarai,-10.62,150.67,78.8,85,100,15.86,PG,1632774637
161,provideniya,64.38,-173.3,30.31,74,90,11.18,RU,1632774638
162,sorong,-0.88,131.25,78.35,86,82,5.17,ID,1632774638
163,svetlogorsk,52.63,29.73,43.7,92,14,6.13,BY,1632774639
164,yashkul,46.17,45.34,53.67,64,5,8.16,RU,1632774639
165,jabinyanah,35.03,10.91,82.2,71,94,10.16,TN,1632774640
166,novopokrovka,49.84,36.55,48.58,79,88,7.87,UA,1632774641
167,moindou,-21.69,165.68,62.55,63,49,6.89,NC,1632774641
168,yibin,28.77,104.62,71.33,87,100,1.88,CN,1632774356
169,tongren,27.72,109.19,72.68,96,21,1.21,CN,1632774641
170,ancud,-41.87,-73.82,54.93,73,69,7.09,CL,1632774642
171,talnakh,69.49,88.4,30.51,60,40,2.48,RU,1632774642
172,qaanaaq,77.48,-69.36,24.6,67,100,6.08,GL,1632774643
173,oranjemund,-28.55,16.43,55.02,83,23,9.86,NA,1632774643
174,portland,45.52,-122.68,61.14,93,90,1.99,US,1632774093
175,nikolskoye,59.7,30.79,46.8,97,0,3.15,RU,1632774643
176,swan hill,-35.34,143.55,51.78,78,100,9.69,AU,1632774644
177,carnarvon,-24.87,113.63,53.67,82,6,8.05,AU,1632774644
178,saint-agapit,46.56,-71.44,64.38,76,98,9.17,CA,1632774646
179,solnechnyy,50.72,136.63,53.67,94,34,0.78,RU,1632774643
180,ndungu,-4.37,38.05,68.68,81,7,4.83,TZ,1632774646
181,matane,48.83,-67.52,53.35,81,62,12.28,CA,1632774647
182,leopold,-38.18,144.47,49.06,78,94,5.7,AU,1632774648
183,sao francisco de paula,-29.45,-50.58,78.69,81,0,1.83,BR,1632774648
184,hamilton,39.18,-84.53,86.14,48,1,4.0,US,1632774648
185,souillac,-20.52,57.52,71.37,73,20,13.8,MU,1632774649
186,cockburn town,21.46,-71.14,83.21,71,2,5.53,TC,1632774649
187,viedma,-40.81,-63.0,64.2,18,50,4.47,AR,1632774626
188,orgtrud,56.18,40.61,41.94,88,100,10.47,RU,1632774650
189,ouallam,14.32,2.09,94.32,21,17,6.31,NE,1632774650
190,linfen,36.09,111.52,62.15,90,100,9.55,CN,1632774651
191,faanui,-16.48,-151.75,79.32,73,7,18.43,PF,1632774651
192,portree,57.41,-6.19,49.86,78,74,14.36,GB,1632774652
193,luganville,-15.53,167.17,78.21,83,91,10.85,VU,1632774652
194,partenit,44.58,34.34,56.21,62,71,5.46,UA,1632774653
195,baykit,61.67,96.37,34.36,83,100,6.98,RU,1632774653
196,faya,18.39,42.45,68.11,26,100,4.5,SA,1632774653
197,kavaratti,10.57,72.64,81.48,79,100,21.47,IN,1632774654
198,bambous virieux,-20.34,57.76,71.22,73,20,13.8,MU,1632774654
199,kahului,20.89,-156.47,86.02,67,1,20.71,US,1632774654
200,saldanha,-33.01,17.94,55.45,78,1,13.58,ZA,1632774655
201,otradnoye,59.78,30.82,46.96,96,0,3.04,RU,1632774655
202,rundu,-17.93,19.77,71.37,16,0,5.57,NA,1632774656
203,nieuwpoort,51.12,2.77,57.09,82,0,8.05,BE,1632774656
204,roald,62.58,6.13,66.34,52,0,16.11,NO,1632774657
205,berlevag,70.86,29.09,55.35,67,0,16.11,NO,1632774657
206,karpogory,64.0,44.45,44.53,87,100,3.49,RU,1632774657
207,satipo,-11.25,-74.64,88.9,41,59,2.17,PE,1632774658
208,kalna,23.22,88.37,82.27,89,99,7.02,IN,1632774658
209,novyy urengoy,66.08,76.63,33.28,71,49,4.97,RU,1632774658
210,komatipoort,-25.43,31.95,70.05,50,100,0.63,ZA,1632774659
211,kitimat,54.05,-128.65,53.98,29,100,1.88,CA,1632774659
212,nacogdoches,31.6,-94.63,89.56,47,75,6.91,US,1632774660
213,longyearbyen,78.22,15.64,31.84,93,90,6.91,SJ,1632774660
214,karasburg,-28.02,18.75,53.85,71,0,11.79,NA,1632774660
215,komsomolskiy,40.43,71.72,63.32,51,0,6.91,UZ,1632774661
216,olga,43.74,135.29,54.84,94,100,2.73,RU,1632774661
217,saskylakh,71.92,114.08,25.38,91,13,10.42,RU,1632774661
218,punta alta,-38.88,-62.07,57.9,42,0,11.36,AR,1632774662
219,pochutla,15.74,-96.47,86.88,60,77,8.03,MX,1632774662
220,skjervoy,70.03,20.97,53.04,76,92,14.0,NO,1632774663
221,pozhva,59.09,56.08,33.48,86,7,7.52,RU,1632774664
222,mizdah,31.45,12.98,73.53,32,0,5.26,LY,1632774664
223,hirara,24.8,125.28,82.83,76,75,17.29,JP,1632774664
224,troitskaya,43.31,44.98,55.42,77,100,3.02,RU,1632774665
225,khandbari,27.37,87.2,70.75,77,91,1.63,NP,1632774665
226,atuona,-9.8,-139.03,77.85,75,17,18.99,PF,1632774665
227,buchanan,5.88,-10.05,74.68,89,100,2.71,LR,1632774666
228,sol-iletsk,51.16,54.99,39.58,85,100,12.15,RU,1632774666
229,toyoshina,36.3,137.9,61.63,87,100,1.1,JP,1632774667
230,constitucion,-35.33,-72.42,59.9,50,0,13.49,CL,1632774667
231,matagami,49.75,-77.63,46.51,93,90,14.97,CA,1632774668
232,iranshahr,27.2,60.68,88.14,29,0,4.61,IR,1632774668
233,tuatapere,-46.13,167.68,44.82,66,75,5.21,NZ,1632774668
234,rawson,-43.3,-65.1,62.26,21,60,15.5,AR,1632774669
235,fukue,32.69,128.84,75.9,83,51,8.68,JP,1632774669
236,usinsk,65.99,57.53,37.71,75,100,9.01,RU,1632774670
237,oistins,13.07,-59.53,87.89,66,20,8.05,BB,1632774431
238,vila franca do campo,37.72,-25.43,74.19,89,13,6.4,PT,1632774670
239,ulaangom,49.98,92.07,34.16,31,97,2.04,MN,1632774671
240,rodrigues alves,-7.74,-72.65,97.0,39,64,3.2,BR,1632774671
241,oussouye,12.48,-16.55,80.37,85,71,5.08,SN,1632774671
242,kedrovyy,56.17,91.82,34.21,96,94,4.83,RU,1632774672
243,magadan,59.57,150.8,41.32,75,5,1.36,RU,1632774672
244,kuandian,40.73,124.78,56.97,94,94,2.75,CN,1632774672
245,beringovskiy,63.05,179.32,36.82,69,59,3.69,RU,1632774673
246,san cristobal,7.77,-72.22,82.58,57,93,6.85,VE,1632774673
247,parkes,-33.13,148.18,55.35,74,35,3.0,AU,1632774673
248,tocopilla,-22.09,-70.2,65.64,68,25,7.78,CL,1632774674
249,tianpeng,30.99,103.94,68.47,90,100,2.48,CN,1632774674
250,nathdwara,24.93,73.82,74.66,92,77,5.14,IN,1632774675
251,kharitonovo,61.4,47.5,35.11,91,25,3.76,RU,1632774675
252,mayo,38.89,-76.51,82.74,48,1,4.0,US,1632774675
253,krotovka,53.29,51.17,42.03,73,100,13.0,RU,1632774676
254,clyde river,70.47,-68.59,32.23,80,75,9.22,CA,1632774676
255,gladstone,-23.85,151.25,64.33,82,90,9.22,AU,1632774677
256,wysokie mazowieckie,52.92,22.52,45.37,89,6,7.9,PL,1632774677
257,tiznit,29.58,-9.5,78.3,28,0,1.36,MA,1632774678
258,east london,-33.02,27.91,65.1,85,100,20.58,ZA,1632774678
259,coihaique,-45.58,-72.07,50.61,50,75,9.22,CL,1632774679
260,mengcheng,33.26,116.57,67.87,91,100,1.95,CN,1632774679
261,ajdabiya,30.76,20.23,73.67,64,30,9.22,LY,1632774680
262,katsuura,35.13,140.3,68.14,79,96,13.49,JP,1632774680
263,nizhniy kuranakh,58.84,125.49,41.07,95,100,2.19,RU,1632774681
264,kavieng,-2.57,150.8,82.47,75,98,9.1,PG,1632774681
265,angren,41.02,70.14,59.81,48,0,2.3,UZ,1632774682
266,channel-port aux basques,47.57,-59.14,57.25,85,0,15.73,CA,1632774620
267,atkinson,42.84,-71.15,75.42,81,90,4.61,US,1632774682
268,ilulissat,69.22,-51.1,26.62,36,1,6.91,GL,1632774683
269,aquiraz,-3.9,-38.39,85.21,67,70,13.89,BR,1632774683
270,kuryk,43.2,51.65,63.37,58,29,7.56,KZ,1632774683
271,placerville,38.73,-120.8,83.05,36,1,1.01,US,1632774609
272,marzuq,14.4,46.47,79.38,43,73,2.68,YE,1632774684
273,ano mera,37.45,25.4,77.07,60,0,18.41,GR,1632774685
274,antofagasta,-23.65,-70.4,61.88,73,18,5.59,CL,1632774685
275,tilichiki,60.47,166.1,36.23,74,100,4.38,RU,1632774686
276,acapulco,16.86,-99.89,85.14,67,68,7.16,MX,1632774649
277,goba,7.02,39.98,52.07,92,100,1.9,ET,1632774686
278,sambava,-14.27,50.17,70.2,87,26,12.68,MG,1632774687
279,chokurdakh,70.63,147.92,16.29,87,7,11.05,RU,1632774687
280,seydi,39.48,62.91,60.66,42,0,6.49,TM,1632774688
281,soure,-0.72,-48.52,81.48,73,15,11.61,BR,1632774689
282,kokstad,-30.55,29.42,63.95,47,64,3.27,ZA,1632774690
283,mirnyy,62.54,113.96,31.96,85,99,12.37,RU,1632774690
284,goodlettsville,36.32,-86.71,85.15,43,0,8.39,US,1632774690
285,san miguel,13.48,-88.18,92.68,54,20,2.3,SV,1632774690
286,comodoro rivadavia,-45.87,-67.5,57.06,30,40,14.97,AR,1632774436
287,amboasary,-25.03,46.38,71.44,79,4,6.76,MG,1632774691
288,balkanabat,39.51,54.37,69.13,39,2,3.33,TM,1632774691
289,ghanzi,-21.57,21.78,72.84,15,41,7.85,BW,1632774692
290,baiyin,36.56,104.21,49.08,72,83,1.1,CN,1632774692
291,wynyard,-41.0,145.72,46.15,78,72,4.61,AU,1632774693
292,nome,64.5,-165.41,35.67,75,1,0.0,US,1632774693
293,ahipara,-35.17,173.17,55.15,59,57,12.24,NZ,1632774694
294,laela,-8.57,32.05,70.84,49,99,3.38,TZ,1632774694
295,plettenberg bay,-34.05,23.37,57.96,85,100,8.01,ZA,1632774695
296,zinder,13.81,8.99,89.31,17,0,5.37,NE,1632774695
297,bontang,0.13,117.5,77.0,89,100,6.22,ID,1632774506
298,keti bandar,24.14,67.45,83.62,78,82,11.61,PK,1632774696
299,kishi,9.08,3.85,73.29,91,57,4.99,NG,1632774696
300,dhangadhi,28.71,80.6,78.96,75,4,4.59,NP,1632774696
301,sao joao do piaui,-8.36,-42.25,93.72,24,71,9.55,BR,1632774697
302,port hedland,-20.32,118.57,60.85,77,26,6.91,AU,1632774697
303,fairbanks,64.84,-147.72,35.1,75,90,1.14,US,1632774536
304,gunjur,13.2,-16.73,84.27,84,40,0.0,GM,1632774698
305,hofn,64.25,-15.21,42.98,78,100,17.67,IS,1632774698
306,hambantota,6.12,81.12,77.34,94,75,5.75,LK,1632774698
307,kambove,-10.88,26.6,70.57,57,100,4.7,CD,1632774699
308,saint-joseph,-21.37,55.62,68.36,78,43,11.97,RE,1632774699
309,kloulklubed,7.04,134.26,79.3,73,93,8.34,PW,1632774700
310,najran,17.49,44.13,75.85,19,11,4.34,SA,1632774700
311,marsa matruh,31.35,27.25,73.6,68,0,6.91,EG,1632774700
312,masindi,1.67,31.72,64.13,92,50,0.4,UG,1632774701
313,mombaca,-5.74,-39.63,86.94,38,81,4.74,BR,1632774701
314,itarema,-2.92,-39.92,80.19,78,64,17.11,BR,1632774701
315,kenai,60.55,-151.26,45.09,59,1,6.91,US,1632774702
316,poum,-20.23,164.02,70.99,71,66,9.73,NC,1632774702
317,kuybyshevo,47.81,38.91,54.61,69,100,5.21,RU,1632774703
318,dillon,34.42,-79.37,86.25,38,0,4.54,US,1632774703
319,sao geraldo do araguaia,-6.4,-48.56,90.81,39,86,5.61,BR,1632774703
320,bethel,41.37,-73.41,78.03,58,21,1.99,US,1632774704
321,fukumitsu,36.55,136.87,65.23,90,99,3.74,JP,1632774704
322,fort saint james,54.43,-124.25,54.52,66,100,6.31,CA,1632774705
323,brae,60.4,-1.35,51.71,79,99,20.92,GB,1632774705
324,remontnoye,46.56,43.65,50.41,62,89,7.29,RU,1632774705
325,broken hill,-31.95,141.43,60.51,27,99,13.8,AU,1632774706
326,vao,-22.67,167.48,67.6,73,16,8.77,NC,1632774706
327,huambo,-12.78,15.74,68.58,39,88,3.47,AO,1632774707
328,cayenne,4.93,-52.33,87.84,76,0,5.99,GF,1632774499
329,nelson bay,-32.72,152.15,58.08,77,18,1.99,AU,1632774707
330,monroe,43.15,-77.68,77.58,58,75,19.57,US,1632774675
331,luanda,-8.84,13.23,75.2,78,65,6.91,AO,1632774698
332,lompoc,34.64,-120.46,70.11,75,90,9.22,US,1632774708
333,belaya gora,68.53,146.42,25.34,92,99,13.31,RU,1632774708
334,biak,-0.91,122.88,75.24,83,98,5.21,ID,1632774709
335,abonnema,4.71,6.79,76.46,90,19,5.21,NG,1632774709
336,anloga,5.79,0.9,79.02,82,78,10.36,GH,1632774710
337,chulman,56.85,124.91,37.17,96,99,5.61,RU,1632774710
338,mokhotlong,-29.29,29.07,61.2,34,54,2.93,LS,1632774711
339,masumbwe,-3.63,32.18,74.28,56,94,2.62,TZ,1632774711
340,manacapuru,-3.3,-60.62,77.58,92,98,7.52,BR,1632774712
341,touros,-5.2,-35.46,81.5,77,7,18.25,BR,1632774566
342,burgeo,47.62,-57.62,58.21,81,0,18.92,CA,1632774713
343,lavrentiya,65.58,-171.0,28.98,83,22,2.17,RU,1632774713
344,ambilobe,-13.2,49.05,73.24,65,26,4.81,MG,1632774713
345,bolilao,10.88,122.73,77.36,90,100,4.88,PH,1632774714
346,ketchikan,55.34,-131.65,50.47,87,90,0.0,US,1632774714
347,nantucket,41.28,-70.1,73.51,71,1,16.11,US,1632774714
348,puerto escondido,15.85,-97.07,85.69,67,65,7.78,MX,1632774715
349,san quintin,30.48,-115.95,72.16,69,87,15.61,MX,1632774715
350,tralee,52.27,-9.7,50.49,81,83,13.51,IE,1632774716
351,petropavlovsk-kamchatskiy,53.05,158.65,34.39,100,0,8.95,RU,1632774675
352,san patricio,28.02,-97.52,95.41,54,97,13.0,US,1632774716
353,san andres,12.58,-81.7,87.82,66,75,10.36,CO,1632774717
354,turukhansk,65.82,87.98,33.15,76,18,7.63,RU,1632774717
355,inongo,-1.95,18.27,69.71,88,50,5.14,CD,1632774717
356,umm kaddadah,13.6,26.69,88.9,34,90,4.56,SD,1632774718
357,half moon bay,37.46,-122.43,77.56,74,90,1.01,US,1632774718
358,pirovskoye,57.63,92.27,32.07,96,89,3.83,RU,1632774719
359,teguise,29.06,-13.56,71.82,73,20,19.57,ES,1632774719
360,port blair,11.67,92.75,79.68,85,100,8.05,IN,1632774720
361,coracora,-15.03,-73.78,64.26,26,5,12.55,PE,1632774720
362,leh,34.17,77.58,56.59,28,9,3.49,IN,1632774720
363,dawlatabad,36.41,64.91,62.6,46,0,3.96,AF,1632774721
364,praia da vitoria,38.73,-27.07,68.76,83,90,14.34,PT,1632774721
365,cukai,4.25,103.42,77.0,92,79,4.59,MY,1632774721
366,dunedin,-45.87,170.5,44.8,77,12,2.82,NZ,1632774722
367,nakuru,-0.28,36.07,60.64,77,94,3.53,KE,1632774722
368,shahrud,36.42,54.98,62.38,32,0,2.84,IR,1632774723
369,mweka,-4.85,21.57,69.28,97,100,1.21,CD,1632774723
370,nanortalik,60.14,-45.24,34.81,69,0,3.15,GL,1632774723
371,prince rupert,54.32,-130.32,53.69,90,90,10.36,CA,1632774724
372,kharp,66.8,65.81,31.39,85,100,3.56,RU,1632774724
373,pangnirtung,66.15,-65.71,33.8,80,75,9.22,CA,1632774725
374,amuntai,-2.42,115.25,73.09,97,68,2.33,ID,1632774725
375,wuning,29.26,120.23,69.49,91,34,1.3,CN,1632774726
376,rafaela,-31.25,-61.49,91.06,24,27,3.0,AR,1632774726
377,taoudenni,22.68,-3.98,97.32,8,28,9.35,ML,1632774726
378,aksarka,66.56,67.8,31.5,82,100,9.33,RU,1632774727
379,alta floresta,-9.88,-56.09,70.38,92,97,2.75,BR,1632774727
380,zhezkazgan,47.8,67.71,58.39,54,51,14.9,KZ,1632774728
381,coquimbo,-29.95,-71.34,62.33,72,0,12.66,CL,1632774728
382,bambanglipuro,-7.95,110.28,75.74,81,91,10.67,ID,1632774729
383,laguna,38.42,-121.42,83.64,52,1,5.01,US,1632774729
384,alipur chatha,32.27,73.82,84.45,63,0,3.83,PK,1632774730
385,masuguru,-11.37,38.42,75.92,55,1,7.34,TZ,1632774730
386,champerico,14.3,-91.92,91.94,75,75,8.1,GT,1632774730
387,slave lake,55.28,-114.77,64.38,59,40,12.66,CA,1632774731
388,olafsvik,64.89,-23.71,36.59,78,100,38.1,IS,1632774731
389,peniche,39.36,-9.38,69.28,90,88,15.3,PT,1632774610
390,byron bay,-28.65,153.62,63.05,54,100,5.48,AU,1632774732
391,fort nelson,58.81,-122.7,40.59,100,90,3.44,CA,1632774616
392,letka,59.6,49.42,32.94,93,17,4.92,RU,1632774732
393,bonavista,48.65,-53.11,62.6,97,96,15.57,CA,1632774732
394,khasan,42.43,130.64,64.45,88,100,5.53,RU,1632774733
395,besancon,47.25,6.02,59.45,100,100,6.11,FR,1632774733
396,preobrazheniye,42.9,133.91,59.29,79,92,3.38,RU,1632774734
397,vestmannaeyjar,63.44,-20.27,40.28,69,100,26.4,IS,1632774735
398,manaus,-3.1,-60.02,77.5,88,75,2.3,BR,1632774735
399,paramonga,-10.67,-77.83,66.51,73,33,10.31,PE,1632774735
400,leshukonskoye,64.9,45.76,44.35,91,100,4.03,RU,1632774736
401,koungou,-12.73,45.2,74.91,83,0,0.0,YT,1632774736
402,sawakin,19.11,37.33,87.6,49,31,7.27,SD,1632774737
403,vychegodskiy,61.25,46.9,35.2,92,34,3.78,RU,1632774737
404,harwich,51.94,1.28,58.21,71,0,8.99,GB,1632774738
405,le port,-20.94,55.29,69.76,76,39,8.23,RE,1632774738
406,labuhan,-6.88,112.21,76.55,78,98,10.47,ID,1632774739
407,zhenlai,45.85,123.3,52.56,67,1,10.6,CN,1632774739
408,waingapu,-9.66,120.26,76.01,82,91,5.37,ID,1632774740
409,santa marta,11.24,-74.2,93.34,78,10,13.24,CO,1632774740
410,veisiejai,54.1,23.7,44.22,91,8,6.49,LT,1632774741
411,roma,43.21,-75.46,76.86,69,40,4.61,US,1632774741
412,helong,42.54,129.0,56.66,97,74,2.39,CN,1632774741
413,katrineholm,59.0,16.21,51.55,84,36,9.73,SE,1632774742
414,arman,59.7,150.17,39.52,76,8,3.29,RU,1632774742
415,constantine,36.36,6.61,69.21,77,40,6.91,DZ,1632774710
416,mitu,1.2,-70.17,85.96,61,85,2.04,CO,1632774743
417,bentiu,9.23,29.83,76.41,74,13,1.57,SS,1632774744
418,aksu,41.12,80.26,66.43,23,0,3.96,CN,1632774744
419,kalaleh,37.38,55.49,68.11,38,0,2.39,IR,1632774745
420,vieux-habitants,16.06,-61.77,87.37,68,16,7.11,GP,1632774745
421,nicoya,10.15,-85.45,87.35,97,100,2.13,CR,1632774746
422,surt,31.21,16.59,75.07,63,57,8.28,LY,1632774746
423,shu,43.6,73.76,58.23,43,1,4.52,KZ,1632774746
424,korla,41.76,86.15,65.03,27,0,2.91,CN,1632774747
425,isoka,-10.16,32.63,72.57,39,98,2.17,ZM,1632774747
426,sitka,57.05,-135.33,49.89,87,90,8.05,US,1632774748
427,invermere,50.52,-116.04,69.39,41,48,10.22,CA,1632774748
428,westport,41.14,-73.36,80.76,54,1,1.01,US,1632774655
429,kaliua,-5.06,31.79,79.48,35,100,3.49,TZ,1632774748
430,balikpapan,-1.27,116.83,75.24,91,100,4.68,ID,1632774749
431,alofi,-19.06,-169.92,78.69,69,40,12.66,NU,1632774749
432,cabo rojo,18.09,-67.15,88.97,74,68,3.0,PR,1632774750
433,erzin,36.96,36.2,74.12,67,0,2.51,TR,1632774751
434,altay,47.87,88.12,42.67,46,92,1.52,CN,1632774751
435,camapua,-19.53,-54.04,90.95,30,72,2.3,BR,1632774751
436,port lincoln,-34.73,135.87,58.17,70,78,1.99,AU,1632774578
437,imeni zhelyabova,58.95,36.6,46.17,93,100,6.46,RU,1632774752
438,ginir,7.13,40.7,64.76,62,99,1.83,ET,1632774752
439,naron,43.52,-8.15,60.04,75,100,4.43,ES,1632774753
440,ternate,0.8,127.4,79.47,83,77,2.42,ID,1632774753
441,havre,49.58,0.33,58.77,72,0,16.11,FR,1632774754
442,waw,7.7,28.0,75.09,77,56,2.1,SS,1632774613
443,rognan,67.1,15.39,60.94,90,87,11.25,NO,1632774754
444,beloyarskiy,63.71,66.67,30.11,88,0,2.01,RU,1632774754
445,meadow lake,34.8,-106.54,76.84,33,87,8.72,US,1632774617
446,safford,32.83,-109.71,78.06,50,90,10.36,US,1632774755
447,canavieiras,-15.68,-38.95,73.13,87,60,6.85,BR,1632774755
448,gurupa,-1.4,-51.64,78.91,79,75,1.81,BR,1632774756
449,nova olimpia,-14.8,-57.29,90.86,37,59,2.84,BR,1632774756
450,neryungri,56.67,124.65,37.17,91,100,5.44,RU,1632774757
451,dossor,47.53,52.98,54.27,75,72,18.3,KZ,1632774757
452,mitsamiouli,-11.38,43.28,76.39,78,0,1.59,KM,1632774757
453,dongsheng,39.82,109.98,56.75,58,100,13.78,CN,1632774758
454,springbok,-29.66,17.89,45.86,89,24,5.66,ZA,1632774758
455,gimli,50.63,-96.99,76.42,59,66,13.8,CA,1632774582
456,boyolangu,-8.12,111.89,74.19,84,100,7.38,ID,1632774759
457,campeche,19.0,-90.5,86.27,56,67,2.62,MX,1632774752
458,porto novo,6.5,2.6,80.42,88,53,5.5,BJ,1632774759
459,valparaiso,-33.04,-71.63,80.83,39,0,9.22,CL,1632774614
460,luderitz,-26.65,15.16,57.69,73,0,21.65,NA,1632774760
461,tautira,-17.73,-149.15,80.62,78,97,16.37,PF,1632774760
462,deputatskiy,69.3,139.9,18.46,92,40,6.22,RU,1632774761
463,yumen,40.28,97.2,60.91,21,0,10.54,CN,1632774761
464,griffith,41.53,-87.42,90.57,40,1,3.0,US,1632774761
465,avera,33.19,-82.53,84.88,39,0,3.56,US,1632774762
466,colac,-38.33,143.58,52.83,75,100,4.07,AU,1632774762
467,taksimo,56.34,114.88,31.32,90,99,2.95,RU,1632774763
468,williamsburg,37.27,-76.71,82.9,46,1,9.22,US,1632774626
469,margate,51.38,1.39,58.71,72,1,4.0,GB,1632774638
470,santa isabel do rio negro,-0.41,-65.02,86.38,66,83,2.24,BR,1632774763
471,vila,42.03,-8.16,55.71,91,100,0.72,PT,1632774764
472,mold,53.17,-3.14,53.67,77,40,4.0,GB,1632774764
473,hirado,33.36,129.55,77.36,75,96,3.74,JP,1632774765
474,mizusawa,39.13,141.13,56.34,94,100,1.57,JP,1632774765
475,alice springs,-23.7,133.88,74.75,19,75,9.22,AU,1632774674
476,santarem,-2.44,-54.71,89.73,55,20,8.05,BR,1632774766
477,kieta,-6.22,155.63,80.76,77,94,0.54,PG,1632774766
478,kenora,49.82,-94.43,67.17,39,75,9.22,CA,1632774766
479,thinadhoo,0.53,72.93,83.05,74,98,16.26,MV,1632774767
480,nyuksenitsa,60.41,44.24,36.63,97,18,4.68,RU,1632774767
481,oum hadjer,13.3,19.7,79.86,66,50,7.67,TD,1632774768
482,shache,38.42,77.24,67.37,15,0,4.7,CN,1632774768
483,sao joao da barra,-21.64,-41.05,77.09,85,85,15.75,BR,1632774769
484,yatou,37.15,122.38,69.62,95,99,16.55,CN,1632774769
485,hakkari,37.58,44.17,51.12,33,0,3.89,TR,1632774769
486,santa cruz,-17.8,-63.17,95.05,43,40,19.57,BO,1632774769
487,kayerkan,69.35,87.76,30.38,68,35,4.52,RU,1632774770
488,sao joao do paraiso,-15.31,-42.01,78.85,42,68,10.63,BR,1632774771
489,upata,8.01,-62.4,81.36,70,25,4.43,VE,1632774771
490,lalmohan,22.34,90.74,81.91,82,100,18.3,BD,1632774772
491,mao,39.89,4.27,72.16,78,0,4.61,ES,1632774772
492,huangchuan,32.13,115.04,68.05,94,26,4.16,CN,1632774772
493,krasnoarmeysk,51.02,45.7,49.3,80,100,10.13,RU,1632774773
494,idappadi,11.58,77.85,73.38,84,100,2.59,IN,1632774773
495,baherden,38.44,57.43,63.77,52,0,6.24,TM,1632774774
496,baghdad,33.34,44.4,81.99,17,0,9.1,IQ,1632774774
497,yuci,37.68,112.73,58.75,72,0,2.24,CN,1632774775
498,kayseri,38.74,35.5,46.42,81,0,0.0,TR,1632774775
499,pokhara,28.23,83.98,71.19,71,72,4.54,NP,1632774776
500,goderich,43.75,-81.72,73.04,77,100,6.91,CA,1632774776
501,aloleng,16.13,119.78,81.39,80,69,2.62,PH,1632774776
502,san fernando,15.03,120.69,81.97,91,75,1.99,PH,1632774777
503,nabire,-3.37,135.48,75.2,87,71,2.93,ID,1632774777
504,saint anthony,45.02,-93.22,79.14,43,1,1.01,US,1632774778
505,mikuni,36.22,136.15,66.11,79,97,6.06,JP,1632774778
506,ponca city,36.71,-97.09,96.62,26,1,10.0,US,1632774542
507,moose factory,51.26,-80.61,51.8,71,90,16.11,CA,1632774778
508,gigmoto,13.78,124.39,79.86,88,98,4.21,PH,1632774779
509,atar,20.52,-13.05,97.77,10,0,7.94,MR,1632774779
510,pontianak,-0.03,109.33,75.18,100,100,2.3,ID,1632774780
511,guaymas,27.93,-110.9,92.88,58,20,17.27,MX,1632774780
512,nyurba,63.28,118.33,31.55,91,48,10.09,RU,1632774781
513,vanimo,-2.67,141.3,77.85,82,93,4.29,PG,1632774781
514,osinki,52.84,49.51,43.63,60,100,14.43,RU,1632774781
515,dolores,-36.31,-57.68,47.25,92,100,10.2,AR,1632774782
516,mercedes,-34.65,-59.43,58.01,78,100,13.58,AR,1632774782
517,berdigestyakh,62.1,126.7,34.93,77,100,10.6,RU,1632774783
518,sioux lookout,50.1,-91.92,62.98,44,40,3.44,CA,1632774783
519,paamiut,61.99,-49.67,34.36,61,0,2.75,GL,1632774783
520,troitskoye,52.98,84.68,30.87,84,76,9.48,RU,1632774784
521,shelburne,44.08,-80.2,72.75,64,100,9.6,CA,1632774784
522,mogadishu,2.04,45.34,77.45,85,73,20.62,SO,1632774784
523,tynset,62.28,10.78,51.42,88,100,14.07,NO,1632774785
524,narkevychi,49.52,26.64,45.07,78,6,7.87,UA,1632774785
525,velizh,55.61,31.2,46.42,87,100,4.45,RU,1632774786
526,kolosovka,56.47,73.61,40.32,61,100,7.96,RU,1632774786
527,calawag,10.67,119.57,77.97,89,80,2.39,PH,1632774787
528,port-cartier,50.03,-66.87,57.92,77,87,10.09,CA,1632774787
529,shakawe,-18.37,21.85,72.97,16,0,4.45,BW,1632774787
530,wonthaggi,-38.6,145.59,50.72,68,22,5.73,AU,1632774788
531,mizan teferi,6.98,35.58,59.65,95,59,3.02,ET,1632774788
532,iguape,-24.71,-47.56,72.16,78,0,8.59,BR,1632774529
533,kokopo,-4.35,152.26,77.76,83,79,3.02,PG,1632774789
534,lasa,46.62,10.7,65.28,86,78,5.99,IT,1632774789
535,verkhoyansk,67.54,133.38,27.73,86,65,2.77,RU,1632774790
536,banjarmasin,-3.32,114.59,75.34,91,83,3.22,ID,1632774777
537,nakskov,54.84,11.13,64.11,97,100,13.06,DK,1632774790
538,ampanihy,-24.7,44.75,74.66,44,39,8.66,MG,1632774791
539,tenenkou,14.46,-4.92,91.33,28,28,6.2,ML,1632774791
540,mporokoso,-9.37,30.12,70.86,52,100,1.86,ZM,1632774791
541,pervomayskiy,53.25,40.29,47.1,89,100,11.43,RU,1632774792
542,acari,-15.43,-74.62,74.03,50,17,7.87,PE,1632774792
543,benghazi,32.12,20.07,75.72,68,30,10.74,LY,1632774793
544,kutum,14.2,24.67,78.46,49,80,8.34,SD,1632774793
545,eyl,7.98,49.82,78.39,80,19,17.11,SO,1632774793
546,yar-sale,66.83,70.83,32.72,83,0,9.55,RU,1632774794
547,moranbah,-22.0,148.05,66.22,69,0,15.17,AU,1632774794
548,high level,58.52,-117.14,46.51,100,90,11.5,CA,1632774794
549,nhulunbuy,-12.23,136.77,74.01,88,99,0.0,AU,1632774795
550,lata,40.16,-8.33,69.04,95,92,3.02,PT,1632774795
551,gushikawa,26.35,127.87,79.83,86,1,6.91,JP,1632774795
552,ciudad bolivar,8.12,-63.55,92.17,45,73,3.36,VE,1632774796
553,sodegaura,35.42,140.02,67.93,80,71,11.3,JP,1632774796
554,cardston,49.2,-113.3,76.3,31,48,9.22,CA,1632774796
555,lashma,54.93,41.14,42.06,91,100,10.36,RU,1632774797
556,shanhetun,44.7,127.2,55.29,95,1,5.68,CN,1632774797
557,havoysund,71.0,24.66,59.88,82,100,10.0,NO,1632774798
558,kamuli,0.95,33.12,64.09,93,45,3.51,UG,1632774798
559,tacuarembo,-31.73,-55.98,71.29,77,0,8.41,UY,1632774799
560,mangrol,21.12,70.12,78.58,87,100,1.48,IN,1632774799
561,lamesa,32.74,-101.95,91.08,23,37,11.74,US,1632774799
562,apollonia,36.97,24.72,75.33,70,0,14.85,GR,1632774799
